[
  {
    "city": "Mumbai",
    "latitude": 19.076,
    "longitude": 72.8777
  },
  {
    "city": "Delhi",
    "latitude": 28.7041,
    "longitude": 77.1025
  },
  {
    "city": "Bangalore",
    "latitude": 12.9716,
    "longitude": 77.5946
  },
  {
    "city": "Kolkata",
    "latitude": 22.5726,
    "longitude": 88.3639
  },
  {
    "city": "Chennai",
    "latitude": 13.0827,
    "longitude": 80.2707
  },
  {
    "city": "Hyderabad",
    "latitude": 17.385,
    "longitude": 78.4867
  },
  {
    "city": "Ahmedabad",
    "latitude": 23.0225,
    "longitude": 72.5714
  },
  {
    "city": "Pune",
    "latitude": 18.5204,
    "longitude": 73.8567
  },
  {
    "city": "Surat",
    "latitude": 21.1702,
    "longitude": 72.8311
  },
  {
    "city": "Jaipur",
    "latitude": 26.9124,
    "longitude": 75.7873
  },
  {
    "city": "Lucknow",
    "latitude": 26.8467,
    "longitude": 80.9462
  },
  {
    "city": "Kanpur",
    "latitude": 26.4499,
    "longitude": 80.3319
  },
  {
    "city": "Nagpur",
    "latitude": 21.1458,
    "longitude": 79.0882
  },
  {
    "city": "Indore",
    "latitude": 22.7196,
    "longitude": 75.8577
  },
  {
    "city": "Thane",
    "latitude": 19.2183,
    "longitude": 72.9781
  },
  {
    "city": "Bhopal",
    "latitude": 23.2599,
    "longitude": 77.4126
  },
  {
    "city": "Visakhapatnam",
    "latitude": 17.6868,
    "longitude": 83.2185
  },
  {
    "city": "Pimpri-Chinchwad",
    "latitude": 18.6279,
    "longitude": 73.8007
  },
  {
    "city": "Patna",
    "latitude": 25.5941,
    "longitude": 85.1376
  },
  {
    "city": "Vadodara",
    "latitude": 22.3072,
    "longitude": 73.1812
  },
  {
    "city": "Ghaziabad",
    "latitude": 28.6692,
    "longitude": 77.4538
  },
  {
    "city": "Ludhiana",
    "latitude": 30.901,
    "longitude": 75.8573
  },
  {
    "city": "Agra",
    "latitude": 27.1767,
    "longitude": 78.0081
  },
  {
    "city": "Nashik",
    "latitude": 20.0059,
    "longitude": 73.7798
  },
  {
    "city": "Faridabad",
    "latitude": 28.4089,
    "longitude": 77.3178
  },
  {
    "city": "Meerut",
    "latitude": 28.9845,
    "longitude": 77.7064
  },
  {
    "city": "Rajkot",
    "latitude": 22.3039,
    "longitude": 70.8022
  },
  {
    "city": "Kalyan-Dombivli",
    "latitude": 19.235,
    "longitude": 73.1296
  },
  {
    "city": "Vasai-Virar",
    "latitude": 19.4259,
    "longitude": 72.8225
  },
  {
    "city": "Varanasi",
    "latitude": 25.3176,
    "longitude": 82.9739
  }
]
